{
  "message": "成功",
  "pois": [
    {
      "address": "大岭山镇德政街",
      "city": "东莞市",
      "city_id": 119,
      "create_time": "2016-10-17 14:58:52",
      "custom_district": "大岭山镇",
      "districtId":120,
      "district": "东莞市市辖区",
      "gcj_location": [
        113.84217971392,
        22.900040226576
      ],
      "geotable_id": 154923,
      "id": 1834093026,
      "location": [
        113.84869,
        22.905901
      ],
      "province": "广东省",
      "title": "大岭山镇政府"
    },
    {
      "address": "广东省东莞市东莞市",
      "city": "东莞市",
      "city_id": 119,
      "create_time": "2016-10-17 14:58:30",
      "custom_district": "大岭山镇",
      "districtId":120,
      "district": "东莞市市辖区",
      "gcj_location": [
        113.83024532635,
        22.904677991601
      ],
      "geotable_id": 154923,
      "id": 1834092953,
      "location": [
        113.83679,
        22.910382
      ],
      "province": "广东省",
      "title": "大岭山跨线桥"
    },
    {
      "address": "东莞市寮步镇河滨东路",
      "city": "东莞市",
      "city_id": 119,
      "create_time": "2016-10-17 14:57:59",
      "custom_district": "寮步镇",
      "districtId":121,
      "district": "东莞市市辖区",
      "gcj_location": [
        113.89130650989,
        22.990100846312
      ],
      "geotable_id": 154923,
      "id": 1834092823,
      "location": [
        113.897739,
        22.996383
      ],
      "province": "广东省",
      "title": "寮步镇居民区"
    },
    {
      "address": "寮步镇",
      "city": "东莞市",
      "city_id": 119,
      "create_time": "2016-10-17 14:57:40",
      "custom_district": "寮步镇",
      "districtId":121,
      "district": "东莞市市辖区",
      "gcj_location": [
        113.87486908214,
        22.99732018205
      ],
      "geotable_id": 154923,
      "id": 1834092756,
      "location": [
        113.881287,
        23.003646
      ],
      "province": "广东省",
      "title": "寮步镇政府"
    },
    {
      "address": "神前五街一巷大坣街路口附近",
      "city": "东莞市",
      "city_id": 119,
      "create_time": "2016-10-17 14:57:20",
      "custom_district": "寮步镇",
      "districtId":121,
      "district": "东莞市市辖区",
      "gcj_location": [
        113.88803935147,
        22.991408899163
      ],
      "geotable_id": 154923,
      "id": 1834092676,
      "location": [
        113.894465,
        22.997719
      ],
      "province": "广东省",
      "title": "寮步镇人口和计划生育服务所"
    },
    {
      "address": "寮步镇寮城西路168号",
      "city": "东莞市",
      "city_id": 119,
      "create_time": "2016-10-17 14:56:29",
      "custom_district": "寮步镇",
      "districtId":121,
      "district": "东莞市市辖区",
      "gcj_location": [
        113.87944512868,
        22.996571617845
      ],
      "geotable_id": 154923,
      "id": 1834092446,
      "location": [
        113.885861,
        23.00291
      ],
      "province": "广东省",
      "title": "东莞市寮步镇质量技术监督工作站"
    },
    {
      "address": "东莞市石竹路12号",
      "city": "东莞市",
      "city_id": 119,
      "create_time": "2016-10-17 14:55:58",
      "custom_district": "南城区",
      "districtId":122,
      "district": "东莞市市辖区",
      "gcj_location": [
        113.75277964435,
        23.009510360026
      ],
      "geotable_id": 154923,
      "id": 1834092333,
      "location": [
        113.759196,
        23.015823
      ],
      "province": "广东省",
      "title": "东莞市南城区阳光中心小学"
    },
    {
      "address": "东莞市石竹路12号",
      "city": "东莞市",
      "city_id": 119,
      "create_time": "2016-10-17 14:53:04",
      "custom_district": "南城区",
      "districtId":122,
      "district": "东莞市市辖区",
      "gcj_location": [
        113.75277964435,
        23.009510360026
      ],
      "geotable_id": 154923,
      "id": 1834091612,
      "location": [
        113.759196,
        23.015823
      ],
      "province": "广东省",
      "title": "东莞市南城区阳光中心小学"
    },
    {
      "address": "鸿福路99号",
      "city": "东莞市",
      "city_id": 119,
      "create_time": "2016-10-17 14:52:37",
      "custom_district": "南城区",
      "districtId":122,
      "district": "东莞市市辖区",
      "gcj_location": [
        113.75181013111,
        23.020691560974
      ],
      "geotable_id": 154923,
      "id": 1834091487,
      "location": [
        113.758231,
        23.026998
      ],
      "province": "广东省",
      "title": "东莞市南城区政府"
    },
    {
      "address": "环城路旁（靠近立新村）",
      "city": "东莞市",
      "city_id": 119,
      "create_time": "2016-10-17 14:34:56",
      "custom_district": "南城区",
      "districtId":122,
      "district": "东莞市市辖区",
      "gcj_location": [
        113.76739495983,
        22.979719542036
      ],
      "geotable_id": 154923,
      "id": 1834087146,
      "location": [
        113.773831,
        22.986036
      ],
      "province": "广东省",
      "title": "雅园新村"
    },
    {
      "address": "东莞市",
      "belongTo_park": "长安花园",
      "city": "东莞市",
      "city_id": 119,
      "create_time": "2016-10-17 14:29:50",
      "custom_district": "长安镇",
      "districtId":123,
      "district": "东莞市市辖区",
      "gcj_location": [
        113.89466575093,
        23.058150523905
      ],
      "geotable_id": 154923,
      "id": 1834081191,
      "location": [
        113.901132,
        23.0644
      ],
      "modify_time": "2016-10-17 14:32:28",
      "province": "广东省",
      "title": "长安花园-1号楼"
    }
  ],
  "size": 11,
  "status": 0,
  "total": 11
}